[
  {
    "name": "IRC Morton Hall",
    "town": "Lincoln",
    "lat": 53.1679042,
    "lng": -0.6890860999999999,
    "type": "Prison"
  },
  {
    "name": "IRC The Verne",
    "town": "Moffat",
    "lat": 50.5615548,
    "lng": -2.4357944,
    "type": "Prison"
  },
  {
    "name": "Oakhill STC",
    "town": "Milton Keynes",
    "lat": 52.0158572,
    "lng": -0.8112400999999999,
    "type": "Prison"
  },
  {
    "name": "Oakhill Secure Training Centre",
    "town": "Milton Keynes",
    "lat": 52.0158572,
    "lng": -0.8112400999999999,
    "type": "Prison"
  },
  {
    "name": "Rainsbrook STC",
    "town": "Willoughby",
    "lat": 52.3260083,
    "lng": -1.2506373,
    "type": "Prison"
  },
  {
    "name": "Rainsbrook Secure Training Centre",
    "town": "Willoughby",
    "lat": 52.3260083,
    "lng": -1.2506373,
    "type": "Prison"
  },
  {
    "name": "HMP Altcourse",
    "town": "Liverpool",
    "lat": 53.4609347,
    "lng": -2.9359817,
    "type": "Prison"
  },
  {
    "name": "HMP Askham Grange",
    "town": "Askham Richard",
    "lat": 53.92590879999999,
    "lng": -1.1841372,
    "type": "Prison"
  },
  {
    "name": "HMP Bedford",
    "town": "Bedford",
    "lat": 52.1389661,
    "lng": -0.4696008999999999,
    "type": "Prison"
  },
  {
    "name": "HMP Belmarsh",
    "town": "London",
    "lat": 51.4961652,
    "lng": 0.0932264,
    "type": "Prison"
  },
  {
    "name": "HMP Brinsford",
    "town": "Wolverhampton",
    "lat": 52.6505566,
    "lng": -2.1103004,
    "type": "Prison"
  },
  {
    "name": "HMP Bristol",
    "town": "Bristol",
    "lat": 51.4805314,
    "lng": -2.5906347,
    "type": "Prison"
  },
  {
    "name": "HMP Bronzefield",
    "town": "Ashford",
    "lat": 51.433082,
    "lng": -0.4832205,
    "type": "Prison"
  },
  {
    "name": "HMP Bullingdon",
    "town": "Bicester",
    "lat": 51.8491718,
    "lng": -1.0942866,
    "type": "Prison"
  },
  {
    "name": "HMP Cardiff",
    "town": "Cardiff",
    "lat": 51.4810689,
    "lng": -3.1683326,
    "type": "Prison"
  },
  {
    "name": "HMP Chelmsford",
    "town": "Chelmsford",
    "lat": 51.7361324,
    "lng": 0.4860732999999999,
    "type": "Prison"
  },
  {
    "name": "HMP Doncaster",
    "town": "Doncaster",
    "lat": 53.5246134,
    "lng": -1.1459719,
    "type": "Prison"
  },
  {
    "name": "HMP Downview",
    "town": "Sutton",
    "lat": 51.3384631,
    "lng": -0.1880442,
    "type": "Prison"
  },
  {
    "name": "HMP Drake Hall",
    "town": "Stafford",
    "lat": 52.87726,
    "lng": -2.2425361,
    "type": "Prison"
  },
  {
    "name": "HMP Durham",
    "town": "Durham",
    "lat": 54.7729047,
    "lng": -1.5679581,
    "type": "Prison"
  },
  {
    "name": "HMP East Sutton Park",
    "town": "Maidstone",
    "lat": 51.2152872,
    "lng": 0.6161008,
    "type": "Prison"
  },
  {
    "name": "HMP Eastwood Park",
    "town": "Wotton-under-Edge",
    "lat": 51.63504709999999,
    "lng": -2.468383,
    "type": "Prison"
  },
  {
    "name": "HMP Elmley",
    "town": "Sheerness",
    "lat": 51.3885414,
    "lng": 0.8505714,
    "type": "Prison"
  },
  {
    "name": "HMP Exeter",
    "town": "Exeter",
    "lat": 50.7281917,
    "lng": -3.5320495,
    "type": "Prison"
  },
  {
    "name": "HMP Forest Bank",
    "town": "Manchester",
    "lat": 53.5141255,
    "lng": -2.3018486,
    "type": "Prison"
  },
  {
    "name": "HMP Foston Hall",
    "town": "Derby",
    "lat": 52.8822614,
    "lng": -1.7253463,
    "type": "Prison"
  },
  {
    "name": "HMP Hatfield",
    "town": "Doncaster",
    "lat": 53.5866239,
    "lng": -0.9809106000000001,
    "type": "Prison"
  },
  {
    "name": "HMP High Down",
    "town": "Sutton",
    "lat": 51.3357233,
    "lng": -0.1890383,
    "type": "Prison"
  },
  {
    "name": "HMP Hindley",
    "town": "Wigan",
    "lat": 53.5178648,
    "lng": -2.5769092,
    "type": "Prison"
  },
  {
    "name": "HMP Hollesley Bay",
    "town": "Woodbridge",
    "lat": 52.051042,
    "lng": 1.451328,
    "type": "Prison"
  },
  {
    "name": "HMP Holme House",
    "town": "Stockton-on-Tees",
    "lat": 54.5766041,
    "lng": -1.2930591,
    "type": "Prison"
  },
  {
    "name": "HMP Hull",
    "town": "Hull",
    "lat": 53.7479503,
    "lng": -0.2967517,
    "type": "Prison"
  },
  {
    "name": "HMP Isis",
    "town": "London",
    "lat": 51.4961652,
    "lng": 0.0932264,
    "type": "Prison"
  },
  {
    "name": "HMP Isle of Wight",
    "town": "Newport",
    "lat": 50.713196,
    "lng": -1.3076464,
    "type": "Prison"
  },
  {
    "name": "HMP Kirklevington Grange",
    "town": "Yarm",
    "lat": 54.49503720000001,
    "lng": -1.3396233,
    "type": "Prison"
  },
  {
    "name": "HMP Lewes",
    "town": "Lewes",
    "lat": 50.8726716,
    "lng": -0.0059188,
    "type": "Prison"
  },
  {
    "name": "HMP Lincoln",
    "town": "Lincoln",
    "lat": 53.2348132,
    "lng": -0.5172097,
    "type": "Prison"
  },
  {
    "name": "HMP Low Newton",
    "town": "Durham",
    "lat": 54.8064867,
    "lng": -1.549427,
    "type": "Prison"
  },
  {
    "name": "HMP Manchester",
    "town": "Manchester",
    "lat": 53.49195109999999,
    "lng": -2.2457898,
    "type": "Prison"
  },
  {
    "name": "HMP Moorland",
    "town": "Doncaster",
    "lat": 53.5465555,
    "lng": -0.9714988000000001,
    "type": "Prison"
  },
  {
    "name": "HMP New Hall",
    "town": "Wakefield",
    "lat": 53.6357399,
    "lng": -1.6109232,
    "type": "Prison"
  },
  {
    "name": "HMP Norwich",
    "town": "Norwich",
    "lat": 52.6369762,
    "lng": 1.3179051,
    "type": "Prison"
  },
  {
    "name": "HMP Nottingham",
    "town": "Nottingham",
    "lat": 52.98464689999999,
    "lng": -1.1553976,
    "type": "Prison"
  },
  {
    "name": "HMP Parc",
    "town": "Bridgend",
    "lat": 51.530964,
    "lng": -3.563143,
    "type": "Prison"
  },
  {
    "name": "HMP Pentonville",
    "town": "London",
    "lat": 51.5449765,
    "lng": -0.1160526,
    "type": "Prison"
  },
  {
    "name": "HMP Peterborough",
    "town": "Peterborough",
    "lat": 52.5864085,
    "lng": -0.2601797,
    "type": "Prison"
  },
  {
    "name": "HMP Portland",
    "town": "Portland",
    "lat": 50.5492107,
    "lng": -2.4216633,
    "type": "Prison"
  },
  {
    "name": "HMP Prescoed",
    "town": "Usk",
    "lat": 51.69941069999999,
    "lng": -2.9006404,
    "type": "Prison"
  },
  {
    "name": "HMP Preston",
    "town": "Preston",
    "lat": 53.7618406,
    "lng": -2.6886838,
    "type": "Prison"
  },
  {
    "name": "HMP Rochester",
    "town": "Rochester",
    "lat": 51.37,
    "lng": 0.488611,
    "type": "Prison"
  },
  {
    "name": "HMP Send",
    "town": "Woking",
    "lat": 51.2738987,
    "lng": -0.4904337,
    "type": "Prison"
  },
  {
    "name": "HMP Springhill",
    "town": "Aylesbury",
    "lat": 51.8931365,
    "lng": -1.0072932,
    "type": "Prison"
  },
  {
    "name": "HMP Standford Hill",
    "town": "Sheerness",
    "lat": 51.3951083,
    "lng": 0.8510106,
    "type": "Prison"
  },
  {
    "name": "HMP Stoke Heath",
    "town": "Market Drayton",
    "lat": 52.8688371,
    "lng": -2.5218096,
    "type": "Prison"
  },
  {
    "name": "HMP Styal",
    "town": "Wilmslow",
    "lat": 53.3406335,
    "lng": -2.23928,
    "type": "Prison"
  },
  {
    "name": "HMP Sudbury",
    "town": "Ashbourne",
    "lat": 52.8927231,
    "lng": -1.7665243,
    "type": "Prison"
  },
  {
    "name": "HMP Swansea",
    "town": "Swansea",
    "lat": 51.61499999999999,
    "lng": -3.949,
    "type": "Prison"
  },
  {
    "name": "HMP Swinfen Hall",
    "town": "Lichfield",
    "lat": 52.6525736,
    "lng": -1.8066018,
    "type": "Prison"
  },
  {
    "name": "HMP Thameside",
    "town": "London",
    "lat": 51.4937188,
    "lng": 0.0881097,
    "type": "Prison"
  },
  {
    "name": "HMP Thorn Cross",
    "town": "Warrington",
    "lat": 53.3490923,
    "lng": -2.5420153,
    "type": "Prison"
  },
  {
    "name": "HMP Wandsworth",
    "town": "London",
    "lat": 51.4500051,
    "lng": -0.1775711,
    "type": "Prison"
  },
  {
    "name": "HMP Warren Hill",
    "town": "Woodbridge",
    "lat": 52.0582553,
    "lng": 1.4617513,
    "type": "Prison"
  },
  {
    "name": "HMP Winchester",
    "town": "Winchester",
    "lat": 51.0625986,
    "lng": -1.3279811,
    "type": "Prison"
  },
  {
    "name": "HMP Woodhill",
    "town": "Milton Keynes",
    "lat": 52.0143898,
    "lng": -0.8083142,
    "type": "Prison"
  },
  {
    "name": "HMP Wormwood Scrubs",
    "town": "London",
    "lat": 51.5169637,
    "lng": -0.2403418,
    "type": "Prison"
  },
  {
    "name": "HMP Wymott",
    "town": "Leyland",
    "lat": 53.6784954,
    "lng": -2.7522291,
    "type": "Prison"
  },
  {
    "name": "HMP Ashfield",
    "town": "Bristol",
    "lat": 51.4826555,
    "lng": -2.4384163,
    "type": "Prison"
  },
  {
    "name": "HMP Berwyn",
    "town": "Wrexham",
    "lat": 53.0371997,
    "lng": -2.9293691,
    "type": "Prison"
  },
  {
    "name": "HMP Birmingham",
    "town": "Birmingham",
    "lat": 52.492599,
    "lng": -1.9384596,
    "type": "Prison"
  },
  {
    "name": "HMP Blantyre House",
    "town": "Cranbrook",
    "lat": 51.13433560000001,
    "lng": 0.5044199,
    "type": "Prison"
  },
  {
    "name": "HMP Brixton",
    "town": "London",
    "lat": 51.45184339999999,
    "lng": -0.1225619,
    "type": "Prison"
  },
  {
    "name": "HMP Buckley Hall",
    "town": "Rochdale",
    "lat": 53.63372949999999,
    "lng": -2.1439747,
    "type": "Prison"
  },
  {
    "name": "HMP Bure",
    "town": "Norwich",
    "lat": 52.759454,
    "lng": 1.3458199,
    "type": "Prison"
  },
  {
    "name": "HMP Channings Wood",
    "town": "Newton Abbot",
    "lat": 50.5104924,
    "lng": -3.6518204,
    "type": "Prison"
  },
  {
    "name": "HMP Coldingley",
    "town": "Woking",
    "lat": 51.3217467,
    "lng": -0.6432669,
    "type": "Prison"
  },
  {
    "name": "HMP Dartmoor",
    "town": "Yelverton",
    "lat": 50.5495271,
    "lng": -3.9963275,
    "type": "Prison"
  },
  {
    "name": "HMP Dovegate",
    "town": "Uttoxeter",
    "lat": 52.8707594,
    "lng": -1.7822721,
    "type": "Prison"
  },
  {
    "name": "HMP Erlestoke",
    "town": "Devizes",
    "lat": 51.2833485,
    "lng": -2.0430271,
    "type": "Prison"
  },
  {
    "name": "HMP Featherstone",
    "town": "Wolverhampton",
    "lat": 52.647414,
    "lng": -2.109806,
    "type": "Prison"
  },
  {
    "name": "HMP Ford",
    "town": "Arundel",
    "lat": 50.8163776,
    "lng": -0.5797947,
    "type": "Prison"
  },
  {
    "name": "HMP Frankland",
    "town": "Durham",
    "lat": 54.8064867,
    "lng": -1.549427,
    "type": "Prison"
  },
  {
    "name": "HMP Full Sutton",
    "town": "York",
    "lat": 53.98504450000001,
    "lng": -0.8694584,
    "type": "Prison"
  },
  {
    "name": "HMP Garth",
    "town": "Leyland",
    "lat": 53.6796006,
    "lng": -2.7561596,
    "type": "Prison"
  },
  {
    "name": "HMP Gartree",
    "town": "Leicestershire",
    "lat": 52.495993,
    "lng": -0.9608316,
    "type": "Prison"
  },
  {
    "name": "HMP Grendon",
    "town": "Aylesbury",
    "lat": 51.8931365,
    "lng": -1.0072932,
    "type": "Prison"
  },
  {
    "name": "HMP Grendon/Springhill",
    "town": "Aylesbury",
    "lat": 51.8931365,
    "lng": -1.0072932,
    "type": "Prison"
  },
  {
    "name": "HMP Guys Marsh",
    "town": "Shaftesbury",
    "lat": 50.9847775,
    "lng": -2.2215698,
    "type": "Prison"
  },
  {
    "name": "HMP Haverigg",
    "town": "Millom",
    "lat": 54.2022592,
    "lng": -3.3125602,
    "type": "Prison"
  },
  {
    "name": "HMP Hewell",
    "town": "Redditch",
    "lat": 52.3246695,
    "lng": -1.9870964,
    "type": "Prison"
  },
  {
    "name": "HMP Highpoint",
    "town": "Newmarket",
    "lat": 52.136974,
    "lng": 0.510659,
    "type": "Prison"
  },
  {
    "name": "HMP Humber",
    "town": "Everthorpe",
    "lat": 53.7693399,
    "lng": -0.6410579,
    "type": "Prison"
  },
  {
    "name": "HMP Huntercombe",
    "town": "Henley-on-Thames",
    "lat": 51.5874,
    "lng": -1.0183,
    "type": "Prison"
  },
  {
    "name": "HMP Kirkham",
    "town": "Preston",
    "lat": 53.774924,
    "lng": -2.8731828,
    "type": "Prison"
  },
  {
    "name": "HMP Lancaster Farms",
    "town": "Lancaster",
    "lat": 54.05352240000001,
    "lng": -2.7708222,
    "type": "Prison"
  },
  {
    "name": "HMP Leeds",
    "town": "Leeds",
    "lat": 53.7957182,
    "lng": -1.5754095,
    "type": "Prison"
  },
  {
    "name": "HMP Leicester",
    "town": "Leicester",
    "lat": 52.6274509,
    "lng": -1.131901,
    "type": "Prison"
  },
  {
    "name": "HMP Leyhill",
    "town": "Gloucester",
    "lat": 51.62803419999999,
    "lng": -2.4367766,
    "type": "Prison"
  },
  {
    "name": "HMP Lindholme",
    "town": "Doncaster",
    "lat": 53.5440121,
    "lng": -0.9703145999999999,
    "type": "Prison"
  },
  {
    "name": "HMP Littlehey",
    "town": "Huntingdon",
    "lat": 52.2816045,
    "lng": -0.3144711,
    "type": "Prison"
  },
  {
    "name": "HMP Liverpool",
    "town": "Liverpool",
    "lat": 53.45657569999999,
    "lng": -2.9713511,
    "type": "Prison"
  },
  {
    "name": "HMP Long Lartin",
    "town": "South Littleton",
    "lat": 52.108459,
    "lng": -1.8540072,
    "type": "Prison"
  },
  {
    "name": "HMP Lowdham Grange",
    "town": "Lowdham",
    "lat": 53.01547069999999,
    "lng": -1.0377761,
    "type": "Prison"
  },
  {
    "name": "HMP Maidstone",
    "town": "Maidstone",
    "lat": 51.2793606,
    "lng": 0.5237286,
    "type": "Prison"
  },
  {
    "name": "HMP North Sea Camp",
    "town": "Boston",
    "lat": 52.9397471,
    "lng": 0.06373329999999999,
    "type": "Prison"
  },
  {
    "name": "HMP Northumberland",
    "town": "Morpeth",
    "lat": 55.29629670000001,
    "lng": -1.6328499,
    "type": "Prison"
  },
  {
    "name": "HMP Oakwood",
    "town": "Featherstone",
    "lat": 52.6479858,
    "lng": -2.1129241,
    "type": "Prison"
  },
  {
    "name": "HMP Onley",
    "town": "Rugby",
    "lat": 52.3269943,
    "lng": -1.2465741,
    "type": "Prison"
  },
  {
    "name": "HMP Ranby",
    "town": "Retford",
    "lat": 53.3200826,
    "lng": -0.9961172,
    "type": "Prison"
  },
  {
    "name": "HMP Risley",
    "town": "Warrington",
    "lat": 53.4381494,
    "lng": -2.523771,
    "type": "Prison"
  },
  {
    "name": "HMP Rye Hill",
    "town": "Rugby",
    "lat": 52.3286127,
    "lng": -1.2425493,
    "type": "Prison"
  },
  {
    "name": "HMP Stafford",
    "town": "Stafford",
    "lat": 52.8114139,
    "lng": -2.117706,
    "type": "Prison"
  },
  {
    "name": "HMP Stocken",
    "town": "Oakham",
    "lat": 52.7469327,
    "lng": -0.5821626999999999,
    "type": "Prison"
  },
  {
    "name": "HMP Swaleside",
    "town": "Isle of Sheppey",
    "lat": 51.3929227,
    "lng": 0.8536864000000001,
    "type": "Prison"
  },
  {
    "name": "HMP The Mount",
    "town": "Bovingdon",
    "lat": 51.72473859999999,
    "lng": -0.5410677,
    "type": "Prison"
  },
  {
    "name": "HMP Usk",
    "town": "Usk",
    "lat": 51.69941069999999,
    "lng": -2.9006404,
    "type": "Prison"
  },
  {
    "name": "HMP Usk & HMP Prescoed",
    "town": "Usk",
    "lat": 51.69941069999999,
    "lng": -2.9006404,
    "type": "Prison"
  },
  {
    "name": "HMP Wakefield",
    "town": "Wakefield",
    "lat": 53.6820424,
    "lng": -1.5065964,
    "type": "Prison"
  },
  {
    "name": "HMP Wayland",
    "town": "Thetford",
    "lat": 52.5538889,
    "lng": 0.8580555999999999,
    "type": "Prison"
  },
  {
    "name": "HMP Wealstun",
    "town": "Wetherby",
    "lat": 53.9144768,
    "lng": -1.3303451,
    "type": "Prison"
  },
  {
    "name": "HMP Whatton",
    "town": "Nottingham",
    "lat": 52.9472902,
    "lng": -0.9116372,
    "type": "Prison"
  },
  {
    "name": "HMP Whitemoor",
    "town": "Whitemoor,",
    "lat": 52.57534589999999,
    "lng": 0.0811047,
    "type": "Prison"
  },
  {
    "name": "HMP/YOI Altcourse",
    "town": "Liverpool",
    "lat": 53.4609347,
    "lng": -2.9359817,
    "type": "Prison"
  },
  {
    "name": "HMP/YOI Askham Grange",
    "town": "Askham Richard",
    "lat": 53.92590879999999,
    "lng": -1.1841372,
    "type": "Prison"
  },
  {
    "name": "HMP/YOI Bedford",
    "town": "Bedford",
    "lat": 52.1389661,
    "lng": -0.4696008999999999,
    "type": "Prison"
  },
  {
    "name": "HMP/YOI Belmarsh",
    "town": "London",
    "lat": 51.4961652,
    "lng": 0.0932264,
    "type": "Prison"
  },
  {
    "name": "HMP/YOI Brinsford",
    "town": "Wolverhampton",
    "lat": 52.6505566,
    "lng": -2.1103004,
    "type": "Prison"
  },
  {
    "name": "HMP/YOI Bronzefield (F)",
    "town": "Ashford",
    "lat": 51.433082,
    "lng": -0.4832205,
    "type": "Prison"
  },
  {
    "name": "HMP/YOI Bullingdon",
    "town": "Bicester",
    "lat": 51.8491718,
    "lng": -1.0942866,
    "type": "Prison"
  },
  {
    "name": "HMP/YOI Cardiff",
    "town": "Cardiff",
    "lat": 51.4810689,
    "lng": -3.1683326,
    "type": "Prison"
  },
  {
    "name": "HMP/YOI Doncaster",
    "town": "Doncaster",
    "lat": 53.5246134,
    "lng": -1.1459719,
    "type": "Prison"
  },
  {
    "name": "HMP/YOI Downview",
    "town": "Sutton",
    "lat": 51.3384631,
    "lng": -0.1880442,
    "type": "Prison"
  },
  {
    "name": "HMP/YOI Drake Hall",
    "town": "Stafford",
    "lat": 52.87726,
    "lng": -2.2425361,
    "type": "Prison"
  },
  {
    "name": "HMP/YOI East Sutton Park",
    "town": "Maidstone",
    "lat": 51.2152872,
    "lng": 0.6161008,
    "type": "Prison"
  },
  {
    "name": "HMP/YOI Eastwood Park",
    "town": "Wotton-under-Edge",
    "lat": 51.63504709999999,
    "lng": -2.468383,
    "type": "Prison"
  },
  {
    "name": "HMP/YOI Exeter",
    "town": "Exeter",
    "lat": 50.7281917,
    "lng": -3.5320495,
    "type": "Prison"
  },
  {
    "name": "HMP/YOI Forest Bank",
    "town": "Manchester",
    "lat": 53.5141255,
    "lng": -2.3018486,
    "type": "Prison"
  },
  {
    "name": "HMP/YOI Foston Hall",
    "town": "Derby",
    "lat": 52.8822614,
    "lng": -1.7253463,
    "type": "Prison"
  },
  {
    "name": "HMP/YOI Glen Parva",
    "town": "Leicester",
    "lat": 52.58337359999999,
    "lng": -1.1438061,
    "type": "Prison"
  },
  {
    "name": "HMP/YOI Hatfield",
    "town": "Doncaster",
    "lat": 53.5866239,
    "lng": -0.9809106000000001,
    "type": "Prison"
  },
  {
    "name": "HMP/YOI Hindley",
    "town": "Wigan",
    "lat": 53.5178648,
    "lng": -2.5769092,
    "type": "Prison"
  },
  {
    "name": "HMP/YOI Hollesley Bay",
    "town": "Woodbridge",
    "lat": 52.051042,
    "lng": 1.451328,
    "type": "Prison"
  },
  {
    "name": "HMP/YOI Hull",
    "town": "Hull",
    "lat": 53.7479503,
    "lng": -0.2967517,
    "type": "Prison"
  },
  {
    "name": "HMP/YOI Isis",
    "town": "London",
    "lat": 51.4978104,
    "lng": 0.09673419999999999,
    "type": "Prison"
  },
  {
    "name": "HMP/YOI Isle of Wight",
    "town": "Newport",
    "lat": 50.713196,
    "lng": -1.3076464,
    "type": "Prison"
  },
  {
    "name": "HMP/YOI Kirklevington Grange",
    "town": "Yarm",
    "lat": 54.49503720000001,
    "lng": -1.3396233,
    "type": "Prison"
  },
  {
    "name": "HMP/YOI Lewes",
    "town": "Lewes",
    "lat": 50.8726716,
    "lng": -0.0059188,
    "type": "Prison"
  },
  {
    "name": "HMP/YOI Lincoln",
    "town": "Lincoln",
    "lat": 53.2348132,
    "lng": -0.5172097,
    "type": "Prison"
  },
  {
    "name": "HMP/YOI Low Newton",
    "town": "Durham",
    "lat": 54.8052726,
    "lng": -1.556871,
    "type": "Prison"
  },
  {
    "name": "HMP/YOI Manchester",
    "town": "Manchester",
    "lat": 53.49195109999999,
    "lng": -2.2457898,
    "type": "Prison"
  },
  {
    "name": "HMP/YOI Moorland",
    "town": "Doncaster",
    "lat": 53.5465555,
    "lng": -0.9714988000000001,
    "type": "Prison"
  },
  {
    "name": "HMP/YOI New Hall &",
    "town": "Wakefield",
    "lat": 53.6357399,
    "lng": -1.6109232,
    "type": "Prison"
  },
  {
    "name": "HMP/YOI Norwich",
    "town": "Norwich",
    "lat": 52.6369762,
    "lng": 1.3179051,
    "type": "Prison"
  },
  {
    "name": "HMP/YOI Nottingham",
    "town": "Nottingham",
    "lat": 52.98464689999999,
    "lng": -1.1553976,
    "type": "Prison"
  },
  {
    "name": "HMP/YOI Parc (YP)",
    "town": "Bridgend",
    "lat": 51.530964,
    "lng": -3.563143,
    "type": "Prison"
  },
  {
    "name": "HMP/YOI Pentonville",
    "town": "London",
    "lat": 51.5449765,
    "lng": -0.1160526,
    "type": "Prison"
  },
  {
    "name": "HMP/YOI Peterborough (F)",
    "town": "Peterborough",
    "lat": 52.5864085,
    "lng": -0.2601797,
    "type": "Prison"
  },
  {
    "name": "HMP/YOI Portland",
    "town": "Portland",
    "lat": 50.5492107,
    "lng": -2.4216633,
    "type": "Prison"
  },
  {
    "name": "HMP/YOI Preston",
    "town": "Preston",
    "lat": 53.7618406,
    "lng": -2.6886838,
    "type": "Prison"
  },
  {
    "name": "HMP/YOI Rochester",
    "town": "Rochester",
    "lat": 51.37,
    "lng": 0.488611,
    "type": "Prison"
  },
  {
    "name": "HMP/YOI Send",
    "town": "Woking",
    "lat": 51.2738987,
    "lng": -0.4904337,
    "type": "Prison"
  },
  {
    "name": "HMP/YOI Stoke Heath",
    "town": "Market Drayton",
    "lat": 52.869477,
    "lng": -2.5234709,
    "type": "Prison"
  },
  {
    "name": "HMP/YOI Styal",
    "town": "Wilmslow",
    "lat": 53.3406335,
    "lng": -2.23928,
    "type": "Prison"
  },
  {
    "name": "HMP/YOI Sudbury",
    "town": "Ashbourne",
    "lat": 52.8927231,
    "lng": -1.7665243,
    "type": "Prison"
  },
  {
    "name": "HMP/YOI Swansea",
    "town": "Swansea",
    "lat": 51.61499999999999,
    "lng": -3.949,
    "type": "Prison"
  },
  {
    "name": "HMP/YOI Swinfen Hall",
    "town": "Lichfield",
    "lat": 52.6525736,
    "lng": -1.8066018,
    "type": "Prison"
  },
  {
    "name": "HMP/YOI Thorn Cross",
    "town": "Warrington",
    "lat": 53.3490923,
    "lng": -2.5420153,
    "type": "Prison"
  },
  {
    "name": "HMP/YOI Warren Hill",
    "town": "Woodbridge",
    "lat": 52.0582553,
    "lng": 1.4617513,
    "type": "Prison"
  },
  {
    "name": "HMP/YOI Woodhill",
    "town": "Milton Keynes",
    "lat": 52.0143898,
    "lng": -0.8083142,
    "type": "Prison"
  },
  {
    "name": "HMP/YOI Wormwood Scrubs",
    "town": "London",
    "lat": 51.5169637,
    "lng": -0.2403418,
    "type": "Prison"
  },
  {
    "name": "HMP/YOI Wymott",
    "town": "Leyland",
    "lat": 53.6784954,
    "lng": -2.7522291,
    "type": "Prison"
  },
  {
    "name": "HMP/YOI Aylesbury",
    "town": "Aylesbury",
    "lat": 51.8225809,
    "lng": -0.8016525999999999,
    "type": "Prison"
  },
  {
    "name": "HMP/YOI Deerbolt",
    "town": "Barnard Castle",
    "lat": 54.5432115,
    "lng": -1.9367631,
    "type": "Prison"
  },
  {
    "name": "HMP/YOI Feltham",
    "town": "Feltham",
    "lat": 51.4415566,
    "lng": -0.4340565,
    "type": "Prison"
  },
  {
    "name": "HMP/YOI Elmley",
    "town": "Eastchurch",
    "lat": 51.3884,
    "lng": 0.8499,
    "type": "Prison"
  },
  {
    "name": "HMP & YOI Altcourse",
    "town": "Liverpool",
    "lat": 53.4609347,
    "lng": -2.9359817,
    "type": "Prison"
  },
  {
    "name": "HMP & YOI Askham Grange",
    "town": "Askham Richard",
    "lat": 53.92590879999999,
    "lng": -1.1841372,
    "type": "Prison"
  },
  {
    "name": "HMP & YOI Bedford",
    "town": "Bedford",
    "lat": 52.1389661,
    "lng": -0.4696008999999999,
    "type": "Prison"
  },
  {
    "name": "HMP & YOI Belmarsh",
    "town": "London",
    "lat": 51.4961652,
    "lng": 0.0932264,
    "type": "Prison"
  },
  {
    "name": "HMP & YOI Brinsford",
    "town": "Wolverhampton",
    "lat": 52.6505566,
    "lng": -2.1103004,
    "type": "Prison"
  },
  {
    "name": "HMP & YOI Bronzefield (F)",
    "town": "Ashford",
    "lat": 51.433082,
    "lng": -0.4832205,
    "type": "Prison"
  },
  {
    "name": "HMP & YOI Bullingdon",
    "town": "Bicester",
    "lat": 51.8491718,
    "lng": -1.0942866,
    "type": "Prison"
  },
  {
    "name": "HMP & YOI Cardiff",
    "town": "Cardiff",
    "lat": 51.4810689,
    "lng": -3.1683326,
    "type": "Prison"
  },
  {
    "name": "HMP & YOI Doncaster",
    "town": "Doncaster",
    "lat": 53.5246134,
    "lng": -1.1459719,
    "type": "Prison"
  },
  {
    "name": "HMP & YOI Downview",
    "town": "Sutton",
    "lat": 51.3384631,
    "lng": -0.1880442,
    "type": "Prison"
  },
  {
    "name": "HMP & YOI Drake Hall",
    "town": "Stafford",
    "lat": 52.87726,
    "lng": -2.2425361,
    "type": "Prison"
  },
  {
    "name": "HMP & YOI East Sutton Park",
    "town": "Maidstone",
    "lat": 51.2152872,
    "lng": 0.6161008,
    "type": "Prison"
  },
  {
    "name": "HMP & YOI Eastwood Park",
    "town": "Wotton-under-Edge",
    "lat": 51.63504709999999,
    "lng": -2.468383,
    "type": "Prison"
  },
  {
    "name": "HMP & YOI Exeter",
    "town": "Exeter",
    "lat": 50.7281917,
    "lng": -3.5320495,
    "type": "Prison"
  },
  {
    "name": "HMP & YOI Forest Bank",
    "town": "Manchester",
    "lat": 53.5141255,
    "lng": -2.3018486,
    "type": "Prison"
  },
  {
    "name": "HMP & YOI Foston Hall",
    "town": "Derby",
    "lat": 52.8822614,
    "lng": -1.7253463,
    "type": "Prison"
  },
  {
    "name": "HMP & YOI Glen Parva",
    "town": "Leicester",
    "lat": 52.58337359999999,
    "lng": -1.1438061,
    "type": "Prison"
  },
  {
    "name": "HMP & YOI Hatfield",
    "town": "Doncaster",
    "lat": 53.5866239,
    "lng": -0.9809106000000001,
    "type": "Prison"
  },
  {
    "name": "HMP & YOI Hindley",
    "town": "Wigan",
    "lat": 53.5178648,
    "lng": -2.5769092,
    "type": "Prison"
  },
  {
    "name": "HMP & YOI Hollesley Bay",
    "town": "Woodbridge",
    "lat": 52.051042,
    "lng": 1.451328,
    "type": "Prison"
  },
  {
    "name": "HMP & YOI Hull",
    "town": "Hull",
    "lat": 53.7479503,
    "lng": -0.2967517,
    "type": "Prison"
  },
  {
    "name": "HMP & YOI Isis",
    "town": "London",
    "lat": 51.4978104,
    "lng": 0.09673419999999999,
    "type": "Prison"
  },
  {
    "name": "HMP & YOI Isle of Wight",
    "town": "Newport",
    "lat": 50.713196,
    "lng": -1.3076464,
    "type": "Prison"
  },
  {
    "name": "HMP & YOI Kirklevington Grange",
    "town": "Yarm",
    "lat": 54.49503720000001,
    "lng": -1.3396233,
    "type": "Prison"
  },
  {
    "name": "HMP & YOI Lewes",
    "town": "Lewes",
    "lat": 50.8726716,
    "lng": -0.0059188,
    "type": "Prison"
  },
  {
    "name": "HMP & YOI Lincoln",
    "town": "Lincoln",
    "lat": 53.2348132,
    "lng": -0.5172097,
    "type": "Prison"
  },
  {
    "name": "HMP & YOI Low Newton",
    "town": "Durham",
    "lat": 54.8052726,
    "lng": -1.556871,
    "type": "Prison"
  },
  {
    "name": "HMP & YOI Manchester",
    "town": "Manchester",
    "lat": 53.49195109999999,
    "lng": -2.2457898,
    "type": "Prison"
  },
  {
    "name": "HMP & YOI Moorland",
    "town": "Doncaster",
    "lat": 53.5465555,
    "lng": -0.9714988000000001,
    "type": "Prison"
  },
  {
    "name": "HMP & YOI New Hall &",
    "town": "Wakefield",
    "lat": 53.6357399,
    "lng": -1.6109232,
    "type": "Prison"
  },
  {
    "name": "HMP & YOI Norwich",
    "town": "Norwich",
    "lat": 52.6369762,
    "lng": 1.3179051,
    "type": "Prison"
  },
  {
    "name": "HMP & YOI Nottingham",
    "town": "Nottingham",
    "lat": 52.98464689999999,
    "lng": -1.1553976,
    "type": "Prison"
  },
  {
    "name": "HMP & YOI Parc (YP)",
    "town": "Bridgend",
    "lat": 51.530964,
    "lng": -3.563143,
    "type": "Prison"
  },
  {
    "name": "HMP & YOI Pentonville",
    "town": "London",
    "lat": 51.5449765,
    "lng": -0.1160526,
    "type": "Prison"
  },
  {
    "name": "HMP & YOI Peterborough (F)",
    "town": "Peterborough",
    "lat": 52.5864085,
    "lng": -0.2601797,
    "type": "Prison"
  },
  {
    "name": "HMP & YOI Portland",
    "town": "Portland",
    "lat": 50.5492107,
    "lng": -2.4216633,
    "type": "Prison"
  },
  {
    "name": "HMP & YOI Preston",
    "town": "Preston",
    "lat": 53.7618406,
    "lng": -2.6886838,
    "type": "Prison"
  },
  {
    "name": "HMP & YOI Rochester",
    "town": "Rochester",
    "lat": 51.37,
    "lng": 0.488611,
    "type": "Prison"
  },
  {
    "name": "HMP & YOI Send",
    "town": "Woking",
    "lat": 51.2738987,
    "lng": -0.4904337,
    "type": "Prison"
  },
  {
    "name": "HMP & YOI Stoke Heath",
    "town": "Market Drayton",
    "lat": 52.869477,
    "lng": -2.5234709,
    "type": "Prison"
  },
  {
    "name": "HMP & YOI Styal",
    "town": "Wilmslow",
    "lat": 53.3406335,
    "lng": -2.23928,
    "type": "Prison"
  },
  {
    "name": "HMP & YOI Sudbury",
    "town": "Ashbourne",
    "lat": 52.8927231,
    "lng": -1.7665243,
    "type": "Prison"
  },
  {
    "name": "HMP & YOI Swansea",
    "town": "Swansea",
    "lat": 51.61499999999999,
    "lng": -3.949,
    "type": "Prison"
  },
  {
    "name": "HMP & YOI Swinfen Hall",
    "town": "Lichfield",
    "lat": 52.6525736,
    "lng": -1.8066018,
    "type": "Prison"
  },
  {
    "name": "HMP & YOI Thorn Cross",
    "town": "Warrington",
    "lat": 53.3490923,
    "lng": -2.5420153,
    "type": "Prison"
  },
  {
    "name": "HMP & YOI Warren Hill",
    "town": "Woodbridge",
    "lat": 52.0582553,
    "lng": 1.4617513,
    "type": "Prison"
  },
  {
    "name": "HMP & YOI Woodhill",
    "town": "Milton Keynes",
    "lat": 52.0143898,
    "lng": -0.8083142,
    "type": "Prison"
  },
  {
    "name": "HMP & YOI Wormwood Scrubs",
    "town": "London",
    "lat": 51.5169637,
    "lng": -0.2403418,
    "type": "Prison"
  },
  {
    "name": "HMP & YOI Wymott",
    "town": "Leyland",
    "lat": 53.6784954,
    "lng": -2.7522291,
    "type": "Prison"
  },
  {
    "name": "HMP & YOI Aylesbury",
    "town": "Aylesbury",
    "lat": 51.8225809,
    "lng": -0.8016525999999999,
    "type": "Prison"
  },
  {
    "name": "HMP & YOI Deerbolt",
    "town": "Barnard Castle",
    "lat": 54.5432115,
    "lng": -1.9367631,
    "type": "Prison"
  },
  {
    "name": "HMP & YOI Feltham",
    "town": "Feltham",
    "lat": 51.4415566,
    "lng": -0.4340565,
    "type": "Prison"
  },
  {
    "name": "HMP & YOI Elmley",
    "town": "Eastchurch",
    "lat": 51.3884,
    "lng": 0.8499,
    "type": "Prison"
  },
  {
    "name": "HMYOI Altcourse",
    "town": "Liverpool",
    "lat": 53.4609347,
    "lng": -2.9359817,
    "type": "Prison"
  },
  {
    "name": "HMYOI Askham Grange",
    "town": "Askham Richard",
    "lat": 53.92590879999999,
    "lng": -1.1841372,
    "type": "Prison"
  },
  {
    "name": "HMYOI Bedford",
    "town": "Bedford",
    "lat": 52.1389661,
    "lng": -0.4696008999999999,
    "type": "Prison"
  },
  {
    "name": "HMYOI Belmarsh",
    "town": "London",
    "lat": 51.4961652,
    "lng": 0.0932264,
    "type": "Prison"
  },
  {
    "name": "HMYOI Brinsford",
    "town": "Wolverhampton",
    "lat": 52.6505566,
    "lng": -2.1103004,
    "type": "Prison"
  },
  {
    "name": "HMYOI Bronzefield (F)",
    "town": "Ashford",
    "lat": 51.433082,
    "lng": -0.4832205,
    "type": "Prison"
  },
  {
    "name": "HMYOI Bullingdon",
    "town": "Bicester",
    "lat": 51.8491718,
    "lng": -1.0942866,
    "type": "Prison"
  },
  {
    "name": "HMYOI Cardiff",
    "town": "Cardiff",
    "lat": 51.4810689,
    "lng": -3.1683326,
    "type": "Prison"
  },
  {
    "name": "HMYOI Doncaster",
    "town": "Doncaster",
    "lat": 53.5246134,
    "lng": -1.1459719,
    "type": "Prison"
  },
  {
    "name": "HMYOI Downview",
    "town": "Sutton",
    "lat": 51.3384631,
    "lng": -0.1880442,
    "type": "Prison"
  },
  {
    "name": "HMYOI Drake Hall",
    "town": "Stafford",
    "lat": 52.87726,
    "lng": -2.2425361,
    "type": "Prison"
  },
  {
    "name": "HMYOI East Sutton Park",
    "town": "Maidstone",
    "lat": 51.2152872,
    "lng": 0.6161008,
    "type": "Prison"
  },
  {
    "name": "HMYOI Eastwood Park",
    "town": "Wotton-under-Edge",
    "lat": 51.63504709999999,
    "lng": -2.468383,
    "type": "Prison"
  },
  {
    "name": "HMYOI Exeter",
    "town": "Exeter",
    "lat": 50.7281917,
    "lng": -3.5320495,
    "type": "Prison"
  },
  {
    "name": "HMYOI Forest Bank",
    "town": "Manchester",
    "lat": 53.5141255,
    "lng": -2.3018486,
    "type": "Prison"
  },
  {
    "name": "HMYOI Foston Hall",
    "town": "Derby",
    "lat": 52.8822614,
    "lng": -1.7253463,
    "type": "Prison"
  },
  {
    "name": "HMYOI Glen Parva",
    "town": "Leicester",
    "lat": 52.58337359999999,
    "lng": -1.1438061,
    "type": "Prison"
  },
  {
    "name": "HMYOI Hatfield",
    "town": "Doncaster",
    "lat": 53.5866239,
    "lng": -0.9809106000000001,
    "type": "Prison"
  },
  {
    "name": "HMYOI Hindley",
    "town": "Wigan",
    "lat": 53.5178648,
    "lng": -2.5769092,
    "type": "Prison"
  },
  {
    "name": "HMYOI Hollesley Bay",
    "town": "Woodbridge",
    "lat": 52.051042,
    "lng": 1.451328,
    "type": "Prison"
  },
  {
    "name": "HMYOI Hull",
    "town": "Hull",
    "lat": 53.7479503,
    "lng": -0.2967517,
    "type": "Prison"
  },
  {
    "name": "HMYOI Isis",
    "town": "London",
    "lat": 51.4978104,
    "lng": 0.09673419999999999,
    "type": "Prison"
  },
  {
    "name": "HMYOI Lincoln",
    "town": "Lincoln",
    "lat": 53.2348132,
    "lng": -0.5172097,
    "type": "Prison"
  },
  {
    "name": "HMYOI Low Newton",
    "town": "Durham",
    "lat": 54.8052726,
    "lng": -1.556871,
    "type": "Prison"
  },
  {
    "name": "HMYOI Manchester",
    "town": "Manchester",
    "lat": 53.49195109999999,
    "lng": -2.2457898,
    "type": "Prison"
  },
  {
    "name": "HMYOI Moorland",
    "town": "Doncaster",
    "lat": 53.5465555,
    "lng": -0.9714988000000001,
    "type": "Prison"
  },
  {
    "name": "HMYOI New Hall &",
    "town": "Wakefield",
    "lat": 53.6357399,
    "lng": -1.6109232,
    "type": "Prison"
  },
  {
    "name": "HMYOI Norwich",
    "town": "Norwich",
    "lat": 52.6369762,
    "lng": 1.3179051,
    "type": "Prison"
  },
  {
    "name": "HMYOI Nottingham",
    "town": "Nottingham",
    "lat": 52.98464689999999,
    "lng": -1.1553976,
    "type": "Prison"
  },
  {
    "name": "HMYOI Parc (YP)",
    "town": "Bridgend",
    "lat": 51.530964,
    "lng": -3.563143,
    "type": "Prison"
  },
  {
    "name": "HMYOI Pentonville",
    "town": "London",
    "lat": 51.5449765,
    "lng": -0.1160526,
    "type": "Prison"
  },
  {
    "name": "HMYOI Peterborough (F)",
    "town": "Peterborough",
    "lat": 52.5864085,
    "lng": -0.2601797,
    "type": "Prison"
  },
  {
    "name": "HMYOI Portland",
    "town": "Portland",
    "lat": 50.5492107,
    "lng": -2.4216633,
    "type": "Prison"
  },
  {
    "name": "HMYOI Preston",
    "town": "Preston",
    "lat": 53.7618406,
    "lng": -2.6886838,
    "type": "Prison"
  },
  {
    "name": "HMYOI Rochester",
    "town": "Rochester",
    "lat": 51.37,
    "lng": 0.488611,
    "type": "Prison"
  },
  {
    "name": "HMYOI Send",
    "town": "Woking",
    "lat": 51.2738987,
    "lng": -0.4904337,
    "type": "Prison"
  },
  {
    "name": "HMYOI Stoke Heath",
    "town": "Market Drayton",
    "lat": 52.869477,
    "lng": -2.5234709,
    "type": "Prison"
  },
  {
    "name": "HMYOI Styal",
    "town": "Wilmslow",
    "lat": 53.3406335,
    "lng": -2.23928,
    "type": "Prison"
  },
  {
    "name": "HMYOI Sudbury",
    "town": "Ashbourne",
    "lat": 52.8927231,
    "lng": -1.7665243,
    "type": "Prison"
  },
  {
    "name": "HMYOI Swansea",
    "town": "Swansea",
    "lat": 51.61499999999999,
    "lng": -3.949,
    "type": "Prison"
  },
  {
    "name": "HMYOI Swinfen Hall",
    "town": "Lichfield",
    "lat": 52.6525736,
    "lng": -1.8066018,
    "type": "Prison"
  },
  {
    "name": "HMYOI Thorn Cross",
    "town": "Warrington",
    "lat": 53.3490923,
    "lng": -2.5420153,
    "type": "Prison"
  },
  {
    "name": "HMYOI Warren Hill",
    "town": "Woodbridge",
    "lat": 52.0582553,
    "lng": 1.4617513,
    "type": "Prison"
  },
  {
    "name": "HMYOI Woodhill",
    "town": "Milton Keynes",
    "lat": 52.0143898,
    "lng": -0.8083142,
    "type": "Prison"
  },
  {
    "name": "HMYOI Wormwood Scrubs",
    "town": "London",
    "lat": 51.5169637,
    "lng": -0.2403418,
    "type": "Prison"
  },
  {
    "name": "HMYOI Wymott",
    "town": "Leyland",
    "lat": 53.6784954,
    "lng": -2.7522291,
    "type": "Prison"
  },
  {
    "name": "HMYOI Aylesbury",
    "town": "Aylesbury",
    "lat": 51.8225809,
    "lng": -0.8016525999999999,
    "type": "Prison"
  },
  {
    "name": "HMYOI Deerbolt",
    "town": "Barnard Castle",
    "lat": 54.5432115,
    "lng": -1.9367631,
    "type": "Prison"
  },
  {
    "name": "HMYOI Elmley",
    "town": "Eastchurch",
    "lat": 51.3884,
    "lng": 0.8499,
    "type": "Prison"
  },
  {
    "name": "HMP Feltham",
    "town": "Feltham",
    "lat": 51.4415566,
    "lng": -0.4340565,
    "type": "Youth Custody"
  },
  {
    "name": "HMP/YOI Feltham",
    "town": "Feltham",
    "lat": 51.4415566,
    "lng": -0.4340565,
    "type": "Youth Custody"
  },
  {
    "name": "HMP & YOI Feltham",
    "town": "Feltham",
    "lat": 51.4415566,
    "lng": -0.4340565,
    "type": "Youth Custody"
  },
  {
    "name": "HMYOI Feltham",
    "town": "Feltham",
    "lat": 51.4415566,
    "lng": -0.4340565,
    "type": "Youth Custody"
  },
  {
    "name": "HMP Feltham B",
    "town": "Feltham",
    "lat": 51.4415566,
    "lng": -0.4340565,
    "type": "Youth Custody"
  },
  {
    "name": "HMP/YOI Feltham B",
    "town": "Feltham",
    "lat": 51.4415566,
    "lng": -0.4340565,
    "type": "Youth Custody"
  },
  {
    "name": "HMP & YOI Feltham B",
    "town": "Feltham",
    "lat": 51.4415566,
    "lng": -0.4340565,
    "type": "Youth Custody"
  },
  {
    "name": "HMYOI Feltham B",
    "town": "Feltham",
    "lat": 51.4415566,
    "lng": -0.4340565,
    "type": "Youth Custody"
  },
  {
    "name": "HMP Cookham Wood",
    "town": "Rochester",
    "lat": 51.3647454,
    "lng": 0.4945179,
    "type": "Youth Custody"
  },
  {
    "name": "HMP/YOI Cookham Wood",
    "town": "Rochester",
    "lat": 51.3647454,
    "lng": 0.4945179,
    "type": "Youth Custody"
  },
  {
    "name": "HMP & YOI Cookham Wood",
    "town": "Rochester",
    "lat": 51.3647454,
    "lng": 0.4945179,
    "type": "Youth Custody"
  },
  {
    "name": "HMYOI Cookham Wood",
    "town": "Rochester",
    "lat": 51.3647454,
    "lng": 0.4945179,
    "type": "Youth Custody"
  },
  {
    "name": "HMP Werrington",
    "town": "Stoke-on-Trent",
    "lat": 53.02273779999999,
    "lng": -2.0871984,
    "type": "Youth Custody"
  },
  {
    "name": "HMP/YOI Werrington",
    "town": "Stoke-on-Trent",
    "lat": 53.02273779999999,
    "lng": -2.0871984,
    "type": "Youth Custody"
  },
  {
    "name": "HMP & YOI Werrington",
    "town": "Stoke-on-Trent",
    "lat": 53.02273779999999,
    "lng": -2.0871984,
    "type": "Youth Custody"
  },
  {
    "name": "HMYOI Werrington",
    "town": "Stoke-on-Trent",
    "lat": 53.02273779999999,
    "lng": -2.0871984,
    "type": "Youth Custody"
  },
  {
    "name": "HMP Wetherby",
    "town": "Wetherby",
    "lat": 53.9356199,
    "lng": -1.3693436,
    "type": "Youth Custody"
  },
  {
    "name": "HMP/YOI Wetherby",
    "town": "Wetherby",
    "lat": 53.9356199,
    "lng": -1.3693436,
    "type": "Youth Custody"
  },
  {
    "name": "HMP & YOI Wetherby",
    "town": "Wetherby",
    "lat": 53.9356199,
    "lng": -1.3693436,
    "type": "Youth Custody"
  },
  {
    "name": "HMYOI Wetherby",
    "town": "Wetherby",
    "lat": 53.9356199,
    "lng": -1.3693436,
    "type": "Youth Custody"
  },
  {
    "name": "IRC Verne",
    "town": "Moffat",
    "lat": 50.5615548,
    "lng": -2.4357944,
    "type": "Prison"
  },
  {
    "name": "HMP Feltham A",
    "town": "Feltham",
    "lat": 51.4415566,
    "lng": -0.4340565,
    "type": "Youth Custody"
  },
  {
    "name": "HMP/YOI Feltham A",
    "town": "Feltham",
    "lat": 51.4415566,
    "lng": -0.4340565,
    "type": "Youth Custody"
  },
  {
    "name": "HMP & YOI Feltham A",
    "town": "Feltham",
    "lat": 51.4415566,
    "lng": -0.4340565,
    "type": "Youth Custody"
  },
  {
    "name": "HMYOI Feltham A",
    "town": "Feltham",
    "lat": 51.4415566,
    "lng": -0.4340565,
    "type": "Youth Custody"
  },
  {
    "name": "Medway STC",
    "town": "Rochester",
    "lat": 51.3613387,
    "lng": 0.4941801,
    "type": "Youth Custody"
  },
  {
    "name": "Medway Secure Training Centre",
    "town": "Rochester",
    "lat": 51.3613387,
    "lng": 0.4941801,
    "type": "Youth Custody"
  },
  {
    "name": "Medway STC (Secure Training Centre)",
    "town": "Rochester",
    "lat": 51.3613387,
    "lng": 0.4941801,
    "type": "Youth Custody"
  },
  {
    "name": "STC Medway",
    "town": "Rochester",
    "lat": 51.3613387,
    "lng": 0.4941801,
    "type": "Youth Custody"
  },
  {
    "name": "Secure Training Centre Medway",
    "town": "Rochester",
    "lat": 51.3613387,
    "lng": 0.4941801,
    "type": "Youth Custody"
  }
]
